{"gyms":{"a36eb8b8e8a44fed912f33978924c892.16":{"guid":"a36eb8b8e8a44fed912f33978924c892.16","lat":-39.30909,"lng":-72.210466,"name":"Maquinas de ejercicion Villa Nuevo Porvenir"},"e78ca84e8ed0474d9fbd7d6e57847e0c.16":{"guid":"e78ca84e8ed0474d9fbd7d6e57847e0c.16","lat":-39.30673,"lng":-72.212765,"name":"Plaza Villa el Pehuen"},"dbde59ddad63434980911acf63a0cdf1.16":{"guid":"dbde59ddad63434980911acf63a0cdf1.16","lat":-39.307456,"lng":-72.213498,"name":"Plaza y Multicancha Villa Araucana"},"206a3e29de07416b954eedd7e8a7d03f.16":{"guid":"206a3e29de07416b954eedd7e8a7d03f.16","lat":-39.310285,"lng":-72.213625,"name":"Juegos Infantiles Río Cachapoal"},"a010877d4c5247a3b5a944481b9c1897.16":{"guid":"a010877d4c5247a3b5a944481b9c1897.16","lat":-39.305095,"lng":-72.224415,"name":"Caras en la Piedra"},"789641306c584e8ab6d09e5b643e228b.16":{"guid":"789641306c584e8ab6d09e5b643e228b.16","lat":-39.305476,"lng":-72.224024,"name":"Ojos en la pared"},"6973f54d21164fa4a33f351c314285f4.16":{"guid":"6973f54d21164fa4a33f351c314285f4.16","lat":-39.305848,"lng":-72.223273,"name":"Plaza Parque Villarrica N°2"},"01cae66003e14ea3baa5e06c88d6d81d.16":{"guid":"01cae66003e14ea3baa5e06c88d6d81d.16","lat":-39.305196,"lng":-72.224836,"name":"Plaza de juegos Parque Villarrica 1"},"f5def63265574498ab86dd784d8a71e2.16":{"guid":"f5def63265574498ab86dd784d8a71e2.16","lat":-39.30487,"lng":-72.226867,"name":"Parque jardín Villarrica"},"d088cec08336406090bbb934dc424292.16":{"guid":"d088cec08336406090bbb934dc424292.16","lat":-39.294574,"lng":-72.238945,"name":"Plaza de juegos y multicancha"},"5dfc6bd7d16e4b75ba9f43048f33576d.16":{"guid":"5dfc6bd7d16e4b75ba9f43048f33576d.16","lat":-39.297211,"lng":-72.222128,"name":"Columpio Placita Diego Portales"},"f37e8f6b2fef4c5fa7008ac6be85fde8.16":{"guid":"f37e8f6b2fef4c5fa7008ac6be85fde8.16","lat":-39.293125,"lng":-72.22151,"name":"Iglesia Metodista Pentecostal"},"106ea4d2e9a9481e8b3cd63198d7c1aa.16":{"guid":"106ea4d2e9a9481e8b3cd63198d7c1aa.16","lat":-39.295569,"lng":-72.223856,"name":"Plaza De Juegos Infantiles"},"5be51aea21f54ee7b95b739182a135d9.16":{"guid":"5be51aea21f54ee7b95b739182a135d9.16","lat":-39.294383,"lng":-72.22281,"name":"Juegos Infantiles "},"4f4032ee6e624ad3920616736d61a8c5.16":{"guid":"4f4032ee6e624ad3920616736d61a8c5.16","lat":-39.2899,"lng":-72.218563,"name":"Graffiti Costanera Villarrica"},"717816aba71747c5a02d1aac342997b0.16":{"guid":"717816aba71747c5a02d1aac342997b0.16","lat":-39.289199,"lng":-72.219432,"name":"Plaza Ajedrez"},"45bc9880f4e142dfbbe57c5b6d6582a8.16":{"guid":"45bc9880f4e142dfbbe57c5b6d6582a8.16","lat":-39.285503,"lng":-72.221398,"name":"Los 3 Viejos Árboles"},"61719fe42d484a57a42dfd53780596b2.16":{"guid":"61719fe42d484a57a42dfd53780596b2.16","lat":-39.284897,"lng":-72.221573,"name":"Bicentenario Villarrica"},"9a781df48d3d412d980d32e4bf607a0c.16":{"guid":"9a781df48d3d412d980d32e4bf607a0c.16","lat":-39.283052,"lng":-72.229635,"name":"Terminal Jac"},"f4de51d5b8da42dda91ccc98195e84f5.16":{"guid":"f4de51d5b8da42dda91ccc98195e84f5.16","lat":-39.28354,"lng":-72.226604,"name":"Municipalidad Villarrica"},"6d8f58f5fce04144acc23a3f15490c96.16":{"guid":"6d8f58f5fce04144acc23a3f15490c96.16","lat":-39.285123,"lng":-72.224753,"name":"Mapuche Bandera"},"b526684ebd004f25beea1de5fe87a183.16":{"guid":"b526684ebd004f25beea1de5fe87a183.16","lat":-39.285305,"lng":-72.224279,"name":"Información Turística"},"ee87823de2214a9fbf46e16136c8ca9d.16":{"guid":"ee87823de2214a9fbf46e16136c8ca9d.16","lat":-39.285252,"lng":-72.234492,"name":"Frases Conscientes"},"0fd3395bb7394ceeb99be2a2acebda5c.16":{"guid":"0fd3395bb7394ceeb99be2a2acebda5c.16","lat":-39.291217,"lng":-72.234368,"name":"Hombres Trabajando"},"8c60e4e9c482465d8e9eea261fa98710.16":{"guid":"8c60e4e9c482465d8e9eea261fa98710.16","lat":-39.291085,"lng":-72.230399,"name":"Mural Alapinta \"Madera Mapuche\""},"e1ea58e3325e478eab8ec0faa53136bc.16":{"guid":"e1ea58e3325e478eab8ec0faa53136bc.16","lat":-39.273983,"lng":-72.231167,"name":"Gruta Virgen "},"663b4bd62c604b80979f102276f45aea.16":{"guid":"663b4bd62c604b80979f102276f45aea.16","lat":-39.277352,"lng":-72.223946,"name":"Iglesia Evangelica Luterana"},"80f5ab7bdade455d9d9cd693aeacfadb.16":{"guid":"80f5ab7bdade455d9d9cd693aeacfadb.16","lat":-39.274042,"lng":-72.239545,"name":"Locomotora Multicolor"},"6ca6d242ed154a09a612747a558ffb4a.16":{"guid":"6ca6d242ed154a09a612747a558ffb4a.16","lat":-39.278093,"lng":-72.227538,"name":"Plaza De Armas Villarrica","isEx":true},"cd84b1c39d1c49abad723da0c06713bd.16":{"guid":"cd84b1c39d1c49abad723da0c06713bd.16","lat":-39.283591,"lng":-72.234772,"name":"Plaza De Juegos Villa Lo Matta"},"b7237dd416224de4b37cd8327bb49706.16":{"guid":"b7237dd416224de4b37cd8327bb49706.16","lat":-39.277534,"lng":-72.225456,"name":"Pontificia Universidad Católica de Chile"},"fd79303356fc4b199867d7285304eb63.16":{"guid":"fd79303356fc4b199867d7285304eb63.16","lat":-39.279306,"lng":-72.232812,"name":"Sanguchote"},"87052938eaa141cfba2930ac9480b9c0.16":{"guid":"87052938eaa141cfba2930ac9480b9c0.16","lat":-39.290848,"lng":-72.228102,"name":"Iglesia San Francisco de Asis"},"7f0ceb5e329f4a65870b8f3841e49f07.16":{"guid":"7f0ceb5e329f4a65870b8f3841e49f07.16","lat":-39.309646,"lng":-72.21771,"name":"Maquinas de Ejercicio Parque Villarrica 10"},"f8b44f0b8a2c47239711b0fe896a0ec0.16":{"guid":"f8b44f0b8a2c47239711b0fe896a0ec0.16","lat":-39.292325,"lng":-72.226501,"name":"Villa las Azaleas"},"fbcb5048d89943d7b6a07ddd3b89bbc1.16":{"guid":"fbcb5048d89943d7b6a07ddd3b89bbc1.16","lat":-39.27793,"lng":-72.231781,"name":"Iglesia De Jesucristo"},"e2d78709b65342928970a98fb2332de4.16":{"guid":"e2d78709b65342928970a98fb2332de4.16","lat":-39.279398,"lng":-72.237128,"name":"plaza ancahual"},"9ab5ca5ee9b8480f9a32adb16f2994ec.16":{"guid":"9ab5ca5ee9b8480f9a32adb16f2994ec.16","lat":-39.293148,"lng":-72.232622,"name":"Mirador Vista al Lago"},"b25c072f965c47b9ab9b9846b2936406.16":{"guid":"b25c072f965c47b9ab9b9846b2936406.16","lat":-39.278912,"lng":-72.220643,"name":"Centro Cultural Villarrica"},"9b73cd67ae0147f2bf7f2722401d8616.16":{"guid":"9b73cd67ae0147f2bf7f2722401d8616.16","lat":-38.951352,"lng":-72.627429,"name":"Ilustre Municipalidad De Freire"},"22e2029746324eb0a2dcc60183acc17b.16":{"guid":"22e2029746324eb0a2dcc60183acc17b.16","lat":-39.273869,"lng":-72.239612,"name":"Cruz Misionera De Villarrica"}},"pokestops":{"a80b365ef4bf4f65bcedb2627d8ce764.16":{"guid":"a80b365ef4bf4f65bcedb2627d8ce764.16","lat":-39.306089,"lng":-72.216861,"name":"cancha de patinaje villa los poetas"},"74750f4cbec349849c78c914857b4ea4.16":{"guid":"74750f4cbec349849c78c914857b4ea4.16","lat":-39.306329,"lng":-72.217563,"name":"Juegos Infantiles Los Poetas"},"ac26ae2abc654b2284069ad4457b4282.16":{"guid":"ac26ae2abc654b2284069ad4457b4282.16","lat":-39.310029,"lng":-72.217026,"name":"juegos infantiles parque Villarrica"},"6013954242884ec7b674dde3f5d6ccf4.16":{"guid":"6013954242884ec7b674dde3f5d6ccf4.16","lat":-39.308946,"lng":-72.210725,"name":"Multicancha municipal Villa Nuevo Porvenir"},"9cf2bcf9ea7846509ec63f3a1942e01d.16":{"guid":"9cf2bcf9ea7846509ec63f3a1942e01d.16","lat":-39.310237,"lng":-72.216301,"name":"Multicancha Parque Villarrica 10"},"44a201b39c0e4ab99c32096f80be63fb.16":{"guid":"44a201b39c0e4ab99c32096f80be63fb.16","lat":-39.308035,"lng":-72.213534,"name":"Mural Ave \"Alapinta\""},"90fa6a793089482c81304700060718dd.16":{"guid":"90fa6a793089482c81304700060718dd.16","lat":-39.308011,"lng":-72.215002,"name":"Plaza de juegos Villa La Araucana 2"},"596c930deb1d48b28c811fb708f632ad.16":{"guid":"596c930deb1d48b28c811fb708f632ad.16","lat":-39.307354,"lng":-72.217851,"name":"Plaza de Juegos Parque Poetas 2"},"a47cfbaa9e864aa6b12e078689d1d747.16":{"guid":"a47cfbaa9e864aa6b12e078689d1d747.16","lat":-39.307288,"lng":-72.214579,"name":"Maquinas de Ejercicios Villa La Araucana"},"c0a6f8269d844a48b00d62040d92ef05.16":{"guid":"c0a6f8269d844a48b00d62040d92ef05.16","lat":-39.309608,"lng":-72.213864,"name":"Maquinas de Ejercicios Roberto Parra"},"98f82f7363bb4ea6ada8040e9f39f550.16":{"guid":"98f82f7363bb4ea6ada8040e9f39f550.16","lat":-39.306996,"lng":-72.222311,"name":"Juegos infantiles Parque Villarrica"},"b90bd00edc364f5198bb38ca5fd30666.16":{"guid":"b90bd00edc364f5198bb38ca5fd30666.16","lat":-39.306483,"lng":-72.220272,"name":"Mural Ave en el Granito"},"685612780084401bb0abcd6df6408114.16":{"guid":"685612780084401bb0abcd6df6408114.16","lat":-39.3044,"lng":-72.224449,"name":"Parque Villa los Volcanes N°1"},"9326a45ffb524173afa536dbb3c17a5a.16":{"guid":"9326a45ffb524173afa536dbb3c17a5a.16","lat":-39.306236,"lng":-72.223634,"name":"Plaza de Juegos Parque Villarrica 3"},"a1277a9c29d84380bc04ee03212044f4.16":{"guid":"a1277a9c29d84380bc04ee03212044f4.16","lat":-39.305492,"lng":-72.219362,"name":"Plaza de juegos villa los volcanes"},"66f48a349cb64f64a2b82aab9aa12d77.16":{"guid":"66f48a349cb64f64a2b82aab9aa12d77.16","lat":-39.30659,"lng":-72.220017,"name":"Plaza Parque Villarrica 2 n°2"},"63a1cd3352f9418ba8c9ad7b8f94a400.16":{"guid":"63a1cd3352f9418ba8c9ad7b8f94a400.16","lat":-39.304092,"lng":-72.224048,"name":"Villa Los Volcanes"},"e957e15ed35b457bb07c54b9c7f26232.16":{"guid":"e957e15ed35b457bb07c54b9c7f26232.16","lat":-39.29935,"lng":-72.224891,"name":"Area Verde Mirador Villarrica"},"d7b2954b3b91452da1b4bb5d0efd3167.16":{"guid":"d7b2954b3b91452da1b4bb5d0efd3167.16","lat":-39.304044,"lng":-72.224539,"name":"Maquinas de Ejercicio, Villa Los Volcanes"},"d656d8fad4294a3faa522b56ebf10ad9.16":{"guid":"d656d8fad4294a3faa522b56ebf10ad9.16","lat":-39.300207,"lng":-72.223891,"name":"Multicancha Pasaje Anita Hernández"},"936e8040fba6453094f446819e3310b8.16":{"guid":"936e8040fba6453094f446819e3310b8.16","lat":-39.300233,"lng":-72.22355,"name":"Plaza De Ejercicio"},"50609629f3944f3289c424ef67633d37.16":{"guid":"50609629f3944f3289c424ef67633d37.16","lat":-39.303302,"lng":-72.226425,"name":"plaza de juegos y ejercicios villa cordillera"},"898d3328c88a49d49210fe63f809992c.16":{"guid":"898d3328c88a49d49210fe63f809992c.16","lat":-39.30289,"lng":-72.227758,"name":"Plaza Villa Lomas Del Lago"},"1d221800e2334d4dbfbd65a483f73c9a.16":{"guid":"1d221800e2334d4dbfbd65a483f73c9a.16","lat":-39.302407,"lng":-72.225612,"name":"Multicancha Villa Cordillera"},"d619541c2b8b49729b56b328d03a112a.16":{"guid":"d619541c2b8b49729b56b328d03a112a.16","lat":-39.294944,"lng":-72.237191,"name":"Juegos Infantiles Todos Los Santos"},"bf3a063c3ff54841ae9ff2fba9a8600b.16":{"guid":"bf3a063c3ff54841ae9ff2fba9a8600b.16","lat":-39.29557,"lng":-72.222977,"name":"Grafito Soñar"},"ff8961531d134044acfebda9276f633d.16":{"guid":"ff8961531d134044acfebda9276f633d.16","lat":-39.294557,"lng":-72.22188,"name":"Multicancha Fresia"},"ca4de651dffc4c91a1332e2a9b672ee0.16":{"guid":"ca4de651dffc4c91a1332e2a9b672ee0.16","lat":-39.294576,"lng":-72.223418,"name":"Iglesia Catolica Capilla Nuestra Señora Del Carmen "},"cfd31588b2eb482e8ea9728d2546119b.16":{"guid":"cfd31588b2eb482e8ea9728d2546119b.16","lat":-39.296582,"lng":-72.222529,"name":"Asamblea Apostólica de La Fe En Cristo Jesus"},"c51063ce3fa04f5799a5329aee39c0e3.16":{"guid":"c51063ce3fa04f5799a5329aee39c0e3.16","lat":-39.29456,"lng":-72.221126,"name":"Mural Ojos Del Volcan Villarica"},"7fa6811189c6464abbc4d5a9586c4739.16":{"guid":"7fa6811189c6464abbc4d5a9586c4739.16","lat":-39.296458,"lng":-72.222042,"name":"Multicancha Diego Portales"},"6bba3f5b010f4888aa6dcbacec15d2a8.16":{"guid":"6bba3f5b010f4888aa6dcbacec15d2a8.16","lat":-39.288046,"lng":-72.219138,"name":"Arco turistico"},"a2c654c44d9c4e8bb9bec39dbab551fb.16":{"guid":"a2c654c44d9c4e8bb9bec39dbab551fb.16","lat":-39.287502,"lng":-72.218674,"name":"Embarcadero Playa Pucara "},"8d7bf205f0ab438daa84b49d71d24823.16":{"guid":"8d7bf205f0ab438daa84b49d71d24823.16","lat":-39.290667,"lng":-72.222163,"name":"Estadio Municipal Matias Vidal Perez"},"dd4f1ee9d6a440e2acbe2322e6bba391.16":{"guid":"dd4f1ee9d6a440e2acbe2322e6bba391.16","lat":-39.290766,"lng":-72.21796,"name":"Hito Tumba Cacique Epulef"},"e9dfd12467a94aeca2a3922e53e17a70.16":{"guid":"e9dfd12467a94aeca2a3922e53e17a70.16","lat":-39.290917,"lng":-72.217734,"name":"Maquinas de Ejercicios"},"56281561cb354bf686ccf3710d51f8d2.16":{"guid":"56281561cb354bf686ccf3710d51f8d2.16","lat":-39.287545,"lng":-72.219884,"name":"Cara de Colores"},"fd265a7039c34ab99c67aa3c102f5b9c.16":{"guid":"fd265a7039c34ab99c67aa3c102f5b9c.16","lat":-39.289576,"lng":-72.219097,"name":"Juegos De La Costanera"},"b0082d5ecb6d4f36a6622b1c1b3178bd.16":{"guid":"b0082d5ecb6d4f36a6622b1c1b3178bd.16","lat":-39.284152,"lng":-72.224277,"name":"Graffiti By Maher"},"0d59627995834648b5a424638d32e124.16":{"guid":"0d59627995834648b5a424638d32e124.16","lat":-39.288345,"lng":-72.22556,"name":"Iglesia Evangélica Pentecostal Villarrica"},"d6886efcb2174ac1bc3918c82f38f69a.16":{"guid":"d6886efcb2174ac1bc3918c82f38f69a.16","lat":-39.28581,"lng":-72.221428,"name":"Juegos marinos"},"1a55c550d4d74daa9f0b01d4bbb7dc5e.16":{"guid":"1a55c550d4d74daa9f0b01d4bbb7dc5e.16","lat":-39.283412,"lng":-72.2252,"name":"Juegos plaza municipal"},"ac381dbcd4574d289f637842cf2a1f2b.16":{"guid":"ac381dbcd4574d289f637842cf2a1f2b.16","lat":-39.286431,"lng":-72.220581,"name":"Los Oberoles "},"e30ce914e8be4bcea7e77a2ff9e71f70.16":{"guid":"e30ce914e8be4bcea7e77a2ff9e71f70.16","lat":-39.283218,"lng":-72.22577,"name":"Maher 2010"},"803e1de1c1a041398774b3f77b6ddb38.16":{"guid":"803e1de1c1a041398774b3f77b6ddb38.16","lat":-39.288851,"lng":-72.224908,"name":"Mañana Empiezo La Dieta"},"0ea0ffd464e04ea8b5bad7b797670798.16":{"guid":"0ea0ffd464e04ea8b5bad7b797670798.16","lat":-39.286111,"lng":-72.223869,"name":"Moai Villarrica "},"7a1407b3d07a43eeb689833a264a1c33.16":{"guid":"7a1407b3d07a43eeb689833a264a1c33.16","lat":-39.28733,"lng":-72.225735,"name":"mural montaña araucaria"},"0b5df4c7a3924321b93e913b21e8487f.16":{"guid":"0b5df4c7a3924321b93e913b21e8487f.16","lat":-39.284957,"lng":-72.223782,"name":"Museo Histórico Municipal Villa-Rica"},"b042620ef9874c289ae712043bbb8c88.16":{"guid":"b042620ef9874c289ae712043bbb8c88.16","lat":-39.283626,"lng":-72.222099,"name":"Newen"},"3bd09bfc959b4758ac59a3aa6dc3f09e.16":{"guid":"3bd09bfc959b4758ac59a3aa6dc3f09e.16","lat":-39.285156,"lng":-72.221808,"name":"Plaza activa"},"8da8abc0eecf4db0ab51b277e9437b92.16":{"guid":"8da8abc0eecf4db0ab51b277e9437b92.16","lat":-39.283767,"lng":-72.225765,"name":"Cabra "},"ebeabc34abe34306a4b1b0dcdb69095b.16":{"guid":"ebeabc34abe34306a4b1b0dcdb69095b.16","lat":-39.28521,"lng":-72.225434,"name":"Registro Civil "},"045acb99d2644d5fbaddbc2961c71aab.16":{"guid":"045acb99d2644d5fbaddbc2961c71aab.16","lat":-39.282564,"lng":-72.222107,"name":"Câmara De Turismo Villarrica"},"b6cc10b14e31492da1751c0ce78f14ff.16":{"guid":"b6cc10b14e31492da1751c0ce78f14ff.16","lat":-39.283168,"lng":-72.226458,"name":"Bernardo Ohiggins Torso"},"ab3411e2175c4e1c83261c991fdeb88c.16":{"guid":"ab3411e2175c4e1c83261c991fdeb88c.16","lat":-39.283739,"lng":-72.228646,"name":"Cara Feliz"},"fcaed5306bce4611bc6e0041e603a299.16":{"guid":"fcaed5306bce4611bc6e0041e603a299.16","lat":-39.28687,"lng":-72.228673,"name":"Culpa de Los Peces"},"635f4b8248fc4a8a88fe3a30601c7f80.16":{"guid":"635f4b8248fc4a8a88fe3a30601c7f80.16","lat":-39.284844,"lng":-72.229088,"name":"Cyborg"},"8d5170307ae64b1fa271524ccec5061b.16":{"guid":"8d5170307ae64b1fa271524ccec5061b.16","lat":-39.28158,"lng":-72.226983,"name":"El Director"},"24a6ee1f9cf543eab1f018f13c07f1dd.16":{"guid":"24a6ee1f9cf543eab1f018f13c07f1dd.16","lat":-39.281258,"lng":-72.226262,"name":"Galeria Comercial"},"7e32d6f1c5d845cc939a8f304524cca3.16":{"guid":"7e32d6f1c5d845cc939a8f304524cca3.16","lat":-39.282228,"lng":-72.228588,"name":"Galería Quetropillan"},"66d634a65e0546de83e91904e53619c1.16":{"guid":"66d634a65e0546de83e91904e53619c1.16","lat":-39.285516,"lng":-72.227881,"name":"Gracias a lo que Aprendí en la escuela"},"0639966a936a452484300a1978f4d021.16":{"guid":"0639966a936a452484300a1978f4d021.16","lat":-39.28217,"lng":-72.225554,"name":"Iglesia bautista"},"bbcf4d695892490f9046b1776dcf7224.16":{"guid":"bbcf4d695892490f9046b1776dcf7224.16","lat":-39.284172,"lng":-72.228352,"name":"Iglesia Del Séptimo Día"},"e8964901996048ef9ef623f4cbdeb508.16":{"guid":"e8964901996048ef9ef623f4cbdeb508.16","lat":-39.288446,"lng":-72.228937,"name":"Iglesia Union Cristiana"},"cbf16dc805b04025a2d701ead029ffa4.16":{"guid":"cbf16dc805b04025a2d701ead029ffa4.16","lat":-39.283966,"lng":-72.226248,"name":"Juego De Agua"},"c1467f7d104d466ba13d9917343af505.16":{"guid":"c1467f7d104d466ba13d9917343af505.16","lat":-39.286276,"lng":-72.227933,"name":"Lunasol By Maher Alapinta "},"4557064e4b3649888c44953e4e1e0975.16":{"guid":"4557064e4b3649888c44953e4e1e0975.16","lat":-39.290265,"lng":-72.229483,"name":"Máquinas De Ejercicios Caupolicán"},"d231429045414c87b62c3f8a7ad35fe5.16":{"guid":"d231429045414c87b62c3f8a7ad35fe5.16","lat":-39.285364,"lng":-72.229078,"name":"Mujeres Annher"},"042967a152e44dd2ba31c616cfb1c580.16":{"guid":"042967a152e44dd2ba31c616cfb1c580.16","lat":-39.287318,"lng":-72.227115,"name":"mural lucha descontaminacion"},"f378280e528c4d66969d15947200cb2e.16":{"guid":"f378280e528c4d66969d15947200cb2e.16","lat":-39.280918,"lng":-72.226791,"name":"Mural salmón colorido."},"35623d85d3f246329a6e3407b25a815d.16":{"guid":"35623d85d3f246329a6e3407b25a815d.16","lat":-39.286413,"lng":-72.228394,"name":"Niño Flor"},"c7fff3aba1de4ed284a6ff35994eda77.16":{"guid":"c7fff3aba1de4ed284a6ff35994eda77.16","lat":-39.281289,"lng":-72.228112,"name":"Payaso"},"df7af15fa57d4cb59645453c2ae94fad.16":{"guid":"df7af15fa57d4cb59645453c2ae94fad.16","lat":-39.283378,"lng":-72.226756,"name":"Pedro Valdivia Torso"},"febfddd620a84068bbffcd5d186e9721.16":{"guid":"febfddd620a84068bbffcd5d186e9721.16","lat":-39.281405,"lng":-72.223025,"name":"Rewe Mapuche"},"173f1aa3ae8448c28e353527e7b3502a.16":{"guid":"173f1aa3ae8448c28e353527e7b3502a.16","lat":-39.282961,"lng":-72.227983,"name":"Rotary International "},"b7f97ae725a14c4fb4d2ad594597b1be.16":{"guid":"b7f97ae725a14c4fb4d2ad594597b1be.16","lat":-39.285629,"lng":-72.22957,"name":"Sirak De Norte A Sur"},"dd5f7c0fe71e4e239b3deac8dabb16ea.16":{"guid":"dd5f7c0fe71e4e239b3deac8dabb16ea.16","lat":-39.282661,"lng":-72.228323,"name":"Estatua Mapuche De Madera"},"1398828ae3074155ba64ee57ceabb945.16":{"guid":"1398828ae3074155ba64ee57ceabb945.16","lat":-39.285494,"lng":-72.229801,"name":"Mural Azul Anner"},"bf6f2c8f316848928a6967c71541f9f9.16":{"guid":"bf6f2c8f316848928a6967c71541f9f9.16","lat":-39.284793,"lng":-72.225419,"name":"Mural Flores"},"5b5e4d26f5ca4145a4a83b2ff6ea7810.16":{"guid":"5b5e4d26f5ca4145a4a83b2ff6ea7810.16","lat":-39.284794,"lng":-72.224692,"name":"Hombre Pewenche"},"e638f52f043f44cd8f1f483c0e3fb298.16":{"guid":"e638f52f043f44cd8f1f483c0e3fb298.16","lat":-39.282412,"lng":-72.226227,"name":"Flores Alapinta"},"70a7bc825f8649579ecc6c482ea5834c.16":{"guid":"70a7bc825f8649579ecc6c482ea5834c.16","lat":-39.284987,"lng":-72.230505,"name":"Aprende De Tus Abuelos "},"850a4ad4dda04c88b17becc6f75c4ae7.16":{"guid":"850a4ad4dda04c88b17becc6f75c4ae7.16","lat":-39.285341,"lng":-72.228326,"name":"Frog Art"},"08afc3a2e36f4312965399a449169908.16":{"guid":"08afc3a2e36f4312965399a449169908.16","lat":-39.283114,"lng":-72.230539,"name":"Rodiviario VipuRay "},"8390522da3ef420c849a7ceba6c75c1c.16":{"guid":"8390522da3ef420c849a7ceba6c75c1c.16","lat":-39.284748,"lng":-72.228296,"name":"Morena Pintada"},"bedf551de3ce4a2ca7dbb890b2bbee1a.16":{"guid":"bedf551de3ce4a2ca7dbb890b2bbee1a.16","lat":-39.287087,"lng":-72.233009,"name":"Gimnasio Municipal De Villarrica"},"86f42a045011441ca0273bbfd00f9a4e.16":{"guid":"86f42a045011441ca0273bbfd00f9a4e.16","lat":-39.291243,"lng":-72.232159,"name":"Juegos Avenida Estacion"},"5ac8910f16b54dd4b40da6ea6f516cb7.16":{"guid":"5ac8910f16b54dd4b40da6ea6f516cb7.16","lat":-39.288056,"lng":-72.233886,"name":"Juegos Villa estación"},"3b2e529e858245e5b526dcde4084ae86.16":{"guid":"3b2e529e858245e5b526dcde4084ae86.16","lat":-39.291775,"lng":-72.233735,"name":"Multicancha Vista al lago"},"91e6fc5a7ce44746bf71685ddc49ea55.16":{"guid":"91e6fc5a7ce44746bf71685ddc49ea55.16","lat":-39.284387,"lng":-72.232586,"name":"Sede social población teniente merino."},"e65a216a8e3643de814b21b820a5aa90.16":{"guid":"e65a216a8e3643de814b21b820a5aa90.16","lat":-39.278506,"lng":-72.227859,"name":"Arturo Prat"},"82d0c3dd0a8d4ca38573385727a8a4ba.16":{"guid":"82d0c3dd0a8d4ca38573385727a8a4ba.16","lat":-39.278815,"lng":-72.223808,"name":"Catedral"},"f0a2544f21ac467e85986c49696e9d48.16":{"guid":"f0a2544f21ac467e85986c49696e9d48.16","lat":-39.279719,"lng":-72.226608,"name":"Correos De Chile"},"67eb79336c384a22b109b78adb968d84.16":{"guid":"67eb79336c384a22b109b78adb968d84.16","lat":-39.277348,"lng":-72.229408,"name":"Encuentro de 2 Mundos."},"65a69d5a427a456ca8bd393c7ff24c26.16":{"guid":"65a69d5a427a456ca8bd393c7ff24c26.16","lat":-39.275006,"lng":-72.238937,"name":"Forjando Chile"},"c0e6f31acc0b485eb7f0285fc0fdf6b2.16":{"guid":"c0e6f31acc0b485eb7f0285fc0fdf6b2.16","lat":-39.280006,"lng":-72.229902,"name":"Iglesia Metodista Pentecostal Villarrica"},"3fc8eae42f9349e1b8723509797a3275.16":{"guid":"3fc8eae42f9349e1b8723509797a3275.16","lat":-39.280513,"lng":-72.235737,"name":"juegos infantiles ancahual"},"1a6ebf7c32214cda89dd2c0f5bcb8af7.16":{"guid":"1a6ebf7c32214cda89dd2c0f5bcb8af7.16","lat":-39.278375,"lng":-72.227283,"name":"Oficina de información turística plaza"},"1ea61f29802f4198a3d25edced27185f.16":{"guid":"1ea61f29802f4198a3d25edced27185f.16","lat":-39.28187,"lng":-72.234313,"name":"Plaza De Juegos Ines De Aguilera/B. Del Mercado"},"e452cbb2e8604c678bbb180da2805f9b.16":{"guid":"e452cbb2e8604c678bbb180da2805f9b.16","lat":-39.281361,"lng":-72.232186,"name":"Plaza De Recreación Familiar "},"59371cfa861f47f089a2a598b52bd010.16":{"guid":"59371cfa861f47f089a2a598b52bd010.16","lat":-39.277708,"lng":-72.227539,"name":"Plaza juegos infantiles"},"57cfec9db6cb462298c54d318d8c7750.16":{"guid":"57cfec9db6cb462298c54d318d8c7750.16","lat":-39.282177,"lng":-72.233408,"name":"UCAM"},"afc41ef8a0044cb29f4606ad7cad7122.16":{"guid":"afc41ef8a0044cb29f4606ad7cad7122.16","lat":-39.272415,"lng":-72.23077,"name":"monumento de bienvenida a Villarrica"},"d72db59266784f17b21fba46bbada278.16":{"guid":"d72db59266784f17b21fba46bbada278.16","lat":-39.272676,"lng":-72.230633,"name":"Villarrica"},"514958866ca04c1a9faaef784b0912ee.16":{"guid":"514958866ca04c1a9faaef784b0912ee.16","lat":-39.273367,"lng":-72.230142,"name":"Placa Recordatoria"},"e5346026317c4ceaa31c15467c8e7ea0.16":{"guid":"e5346026317c4ceaa31c15467c8e7ea0.16","lat":-39.275107,"lng":-72.241503,"name":"Monolito"},"f0b1f6888bf0428281232c945c02a9c7.16":{"guid":"f0b1f6888bf0428281232c945c02a9c7.16","lat":-39.275152,"lng":-72.242336,"name":"Monolito 3"},"9e00e05cb8944e50a5360732c9c1cc9b.16":{"guid":"9e00e05cb8944e50a5360732c9c1cc9b.16","lat":-39.274893,"lng":-72.241877,"name":"Monolito 2"},"36b77d521a1f4e04a31f5caf1a7100eb.16":{"guid":"36b77d521a1f4e04a31f5caf1a7100eb.16","lat":-39.28178,"lng":-72.2316,"name":"Mural La Felicidad No Es Sólo Casa Auto"},"ed313868f021400bbc3cb017c4ef0b2c.16":{"guid":"ed313868f021400bbc3cb017c4ef0b2c.16","lat":-39.295255,"lng":-72.221373,"name":"Plaza De Juegos Infantil "},"fd9ea93a2b054aaaa5265e7eb80be981.16":{"guid":"fd9ea93a2b054aaaa5265e7eb80be981.16","lat":-39.278462,"lng":-72.221411,"name":"Mapuches"},"3950dcda9fdd4d0c806fc9c184fefc59.16":{"guid":"3950dcda9fdd4d0c806fc9c184fefc59.16","lat":-39.281006,"lng":-72.222093,"name":"plazuela de juegos"},"5c79bfe452e94cc0a11d5ee45333f008.16":{"guid":"5c79bfe452e94cc0a11d5ee45333f008.16","lat":-39.280001,"lng":-72.221032,"name":"Armada de Chile"},"4f32b1974c3349309bda802334001e2d.16":{"guid":"4f32b1974c3349309bda802334001e2d.16","lat":-39.288779,"lng":-72.21953,"name":"Ojo Llorando "},"948b375fea5a4e4889d946f8bbac6d8c.16":{"guid":"948b375fea5a4e4889d946f8bbac6d8c.16","lat":-39.288039,"lng":-72.219712,"name":"Cara 1"},"3b3c61b85bff45fd854678c93a3f8720.16":{"guid":"3b3c61b85bff45fd854678c93a3f8720.16","lat":-39.300345,"lng":-72.232778,"name":"Santuario San Sebastian"},"b71e854a78fa44309ce6518e4230d255.16":{"guid":"b71e854a78fa44309ce6518e4230d255.16","lat":-39.309201,"lng":-72.209729,"name":"Plaza de Juegos y Area verde Villa Nuevo Porvenir"},"9b645803ccc943cf81dc9f20d565b64d.16":{"guid":"9b645803ccc943cf81dc9f20d565b64d.16","lat":-39.309342,"lng":-72.214457,"name":"Placita De Juegos Laguna Quillelhue"},"5ded982a54964acda4eb2f810b59f5b4.16":{"guid":"5ded982a54964acda4eb2f810b59f5b4.16","lat":-39.307901,"lng":-72.220495,"name":"Plaza De Juegos Luis Durand"},"2bcaa46eea5d49e39c8327bf23395002.16":{"guid":"2bcaa46eea5d49e39c8327bf23395002.16","lat":-39.282356,"lng":-72.22411,"name":"Que reír sea rutina"},"36f2652f302642f9951f45762560ca08.16":{"guid":"36f2652f302642f9951f45762560ca08.16","lat":-39.29561,"lng":-72.22842,"name":"El Graffiti Cambio mi Vida"},"a15fac31bc06400cb93423e2d742385e.16":{"guid":"a15fac31bc06400cb93423e2d742385e.16","lat":-39.310415,"lng":-72.215049,"name":"Juegos Infantiles Rio Baker"},"a2be9008332845ddacf0c27cade854ff.16":{"guid":"a2be9008332845ddacf0c27cade854ff.16","lat":-39.30966,"lng":-72.210435,"name":"Plaza Villa Europa"},"0282f04fbf444e2cbb05dc91c78a8f88.16":{"guid":"0282f04fbf444e2cbb05dc91c78a8f88.16","lat":-39.309232,"lng":-72.220373,"name":"Ser Humano"},"81cdea0a7d004c44b5f05e3fad5bd902.16":{"guid":"81cdea0a7d004c44b5f05e3fad5bd902.16","lat":-39.311217,"lng":-72.21307,"name":"Multicancha Rio Cruces"},"d6fb0bb0a3c443ab802456de18deccae.16":{"guid":"d6fb0bb0a3c443ab802456de18deccae.16","lat":-39.310769,"lng":-72.216562,"name":"Plaza de Juegos 2 Parque Villarrica 10"},"ec26e45a3d6a4271839b90b542724e76.16":{"guid":"ec26e45a3d6a4271839b90b542724e76.16","lat":-39.302727,"lng":-72.228661,"name":"Plaza de Juegos Villa Italia"},"d384db5575df4b358b31de79d1712123.16":{"guid":"d384db5575df4b358b31de79d1712123.16","lat":-39.278106,"lng":-72.233783,"name":"cancha basquetball Juan Bautista"},"894d9fa5b1dc4b73b6c0edf261b23c04.16":{"guid":"894d9fa5b1dc4b73b6c0edf261b23c04.16","lat":-39.309307,"lng":-72.21519,"name":"Plaza De Juegos Cerros De Melilahuen"},"711f9d49f9f84202923147d6d21ce28d.16":{"guid":"711f9d49f9f84202923147d6d21ce28d.16","lat":-39.279185,"lng":-72.224389,"name":"Multicancha Catedral De Villarrica"},"132bcb055fc949f3b8bb32b3408f51f9.16":{"guid":"132bcb055fc949f3b8bb32b3408f51f9.16","lat":-39.27899,"lng":-72.234921,"name":"Juegos Infantiles Federico Trapp"},"223d8a6e51a24ecbaa3e9b629afb9edf.16":{"guid":"223d8a6e51a24ecbaa3e9b629afb9edf.16","lat":-39.306717,"lng":-72.224732,"name":"Plaza Infantil Parque Villarrica 11"},"3f87f4c91164420e9860f52c5a507740.16":{"guid":"3f87f4c91164420e9860f52c5a507740.16","lat":-39.283378,"lng":-72.22837,"name":"Mercado Newen"},"94770014d4384ee286b6ff1b7680e570.16":{"guid":"94770014d4384ee286b6ff1b7680e570.16","lat":-39.309011,"lng":-72.215503,"name":"Maquinas De Ejercicio Violeta Parra"},"1657d9e825344d339ca964ceaa69b5fe.16":{"guid":"1657d9e825344d339ca964ceaa69b5fe.16","lat":-39.288257,"lng":-72.220635,"name":"Canchas de Tenis"},"fdacab383d6f4726bf96fc510f2d2f77.16":{"guid":"fdacab383d6f4726bf96fc510f2d2f77.16","lat":-39.279561,"lng":-72.230858,"name":"Iglesia Salón del Reino"},"9845a8d8d8d448d196ec861b89821859.16":{"guid":"9845a8d8d8d448d196ec861b89821859.16","lat":-39.308442,"lng":-72.21832,"name":"Plaza De Juegos Luis Durand #2"},"6c21823c02794ed291a6c25c88496047.16":{"guid":"6c21823c02794ed291a6c25c88496047.16","lat":-39.293205,"lng":-72.231098,"name":"Canchas Vergara"},"ca02cf32c93f48af949d82c0dee015b4.16":{"guid":"ca02cf32c93f48af949d82c0dee015b4.16","lat":-39.284016,"lng":-72.221668,"name":"Corazón de la Madre Tierra"},"ada5b39738a949ab8acf705039a52171.16":{"guid":"ada5b39738a949ab8acf705039a52171.16","lat":-39.277873,"lng":-72.238822,"name":"maquinas ejercicio"},"d543b3fe81634516ba869ef90ac423fd.16":{"guid":"d543b3fe81634516ba869ef90ac423fd.16","lat":-39.308264,"lng":-72.219987,"name":"Maquinas De Ejercicio Rosario Orrego"},"0b52cc17ae004f3699ca4cd360094727.16":{"guid":"0b52cc17ae004f3699ca4cd360094727.16","lat":-39.284273,"lng":-72.22142,"name":"Animales del sur del mundo"},"f2a52564cce44977a4126b7ebf63c789.16":{"guid":"f2a52564cce44977a4126b7ebf63c789.16","lat":-39.279541,"lng":-72.220267,"name":"Columpios junto al lago"},"4ec03a0aa2e84534814a04ac6728a9b8.16":{"guid":"4ec03a0aa2e84534814a04ac6728a9b8.16","lat":-39.286189,"lng":-72.234487,"name":"Cancha techada municipal"},"1f4d722fb5f246b1b985fb7c9ce4834f.16":{"guid":"1f4d722fb5f246b1b985fb7c9ce4834f.16","lat":-39.27875,"lng":-72.234614,"name":"Maquinas de ejercicio Plaza Gerónimo de Alderete"},"43400e66500a4d4cbf4630724fe760e2.16":{"guid":"43400e66500a4d4cbf4630724fe760e2.16","lat":-39.308923,"lng":-72.219619,"name":"Plaza De Juegos Paraue Villarrica IX"},"8d3650f133a9476ca751822a37a28412.16":{"guid":"8d3650f133a9476ca751822a37a28412.16","lat":-39.280116,"lng":-72.307493,"name":"Capilla San Francisco De Ñancul "},"e5ddffaaff9449309a5acc9c6e590c0b.16":{"guid":"e5ddffaaff9449309a5acc9c6e590c0b.16","lat":-39.275059,"lng":-72.323531,"name":"pileta de la plaza"},"40d73f7da93542f2a94fae85f3dcf3da.16":{"guid":"40d73f7da93542f2a94fae85f3dcf3da.16","lat":-39.284708,"lng":-72.221693,"name":"Ventana al Volcan"},"2e992d23d28848b59acb13137871b1b4.16":{"guid":"2e992d23d28848b59acb13137871b1b4.16","lat":-39.30459,"lng":-72.225118,"name":"Plaza Activa Los Volcanes"},"0c749441f404477d80867139a8055dfe.16":{"guid":"0c749441f404477d80867139a8055dfe.16","lat":-39.282575,"lng":-72.230079,"name":"Terminal pullmanbus"},"31bf5caa724d422980c890178541ba4f.16":{"guid":"31bf5caa724d422980c890178541ba4f.16","lat":-39.267344,"lng":-72.347301,"name":"Capilla virgen del Carmen, Malloco"},"be18b536d05d41878f11e1b3b7b2ad14.16":{"guid":"be18b536d05d41878f11e1b3b7b2ad14.16","lat":-39.282816,"lng":-72.232141,"name":"Hogar de Cristo"},"f39dd68f1c7043ffb9e86d3a3597ad3e.16":{"guid":"f39dd68f1c7043ffb9e86d3a3597ad3e.16","lat":-38.951719,"lng":-72.627087,"name":"Club Saturar Obrero"},"aab6863089e34c06bd5c717c3c81590f.16":{"guid":"aab6863089e34c06bd5c717c3c81590f.16","lat":-38.952543,"lng":-72.627051,"name":"Ministerio El Rey Esta Volviendo"},"677b11eea128461aae19a382a73ceb22.16":{"guid":"677b11eea128461aae19a382a73ceb22.16","lat":-38.951637,"lng":-72.626497,"name":"Centro Cultural De Freire"},"3a212502873d44629cc404fb400f6e49.16":{"guid":"3a212502873d44629cc404fb400f6e49.16","lat":-39.278711,"lng":-72.23112,"name":"Templo Evangélico"},"2c3f48fc3932471dbbe83531e47607b8.16":{"guid":"2c3f48fc3932471dbbe83531e47607b8.16","lat":-39.285844,"lng":-72.224308,"name":"Barrio comercial"},"27453f4dbb8c490bb79e529b8a4da51a.16":{"guid":"27453f4dbb8c490bb79e529b8a4da51a.16","lat":-39.289686,"lng":-72.218904,"name":"Arte Costanera"},"bb9ae169ac10456dbe522154e4172385.16":{"guid":"bb9ae169ac10456dbe522154e4172385.16","lat":-39.282306,"lng":-72.223683,"name":"Iglesia Metodista"},"be538b863b7047e7a9ddc1723ee3dc0c.16":{"guid":"be538b863b7047e7a9ddc1723ee3dc0c.16","lat":-39.291688,"lng":-72.232054,"name":"Plaza Los Quillalles"},"78e5723352ab4755bf7aa1c1560cd1ea.16":{"guid":"78e5723352ab4755bf7aa1c1560cd1ea.16","lat":-39.286704,"lng":-72.228995,"name":"Mural alma Mapuche"},"9cbb3d2930d24c34933fce16ffc84fbc.16":{"guid":"9cbb3d2930d24c34933fce16ffc84fbc.16","lat":-39.27719,"lng":-72.239484,"name":"Plazoleta de Villa Paraiso"},"933d2705b5914e8093d3be69f349f169.16":{"guid":"933d2705b5914e8093d3be69f349f169.16","lat":-39.286294,"lng":-72.220882,"name":"Viejos Tiempos"}},"notpogo":{"21347e3db7d3491eade934089cf6e2e2.16":{"guid":"21347e3db7d3491eade934089cf6e2e2.16","lat":-39.29671,"lng":-72.222203,"name":"Plaza De Ejercicios"}},"ignoredCellsExtraGyms":{"F4ij[15491,11472]@14":true,"F4ij[15496,11474]@14":true,"F4ij[15415,11405]@14":true},"ignoredCellsMissingGyms":{}}